{
  "route": [
    { "lat": 37.200864, "lng": -6.924522 },
    { "lat": 37.205217, "lng": -6.930372 },
    { "lat": 37.205094, "lng": -6.931164 },
    { "lat": 37.205217, "lng": -6.930372 },
    { "lat": 37.206458, "lng": -6.931342 },
    { "lat": 37.207269, "lng": -6.932331 },
    { "lat": 37.208944, "lng": -6.930386 },
    { "lat": 37.210575, "lng": -6.929539 },
    { "lat": 37.208944, "lng": -6.930386 },
    { "lat": 37.203228, "lng": -6.925839 },
    { "lat": 37.200864, "lng": -6.924522 }
  ],
  "nodes": [
    {
      "id": "stop-1",
      "label": "1",
      "lat": 37.200864,
      "lng": -6.924522,
      "title": "Start of the Path",
      "info": "Looking north-west from here, you can see the Maxi-Lecture Hall of the Huelva Campus."
    },
    {
      "id": "stop-2",
      "label": "2",
      "lat": 37.205033,
      "lng": -6.931289,
      "title": "Estero de Domingo Rubio",
      "info": "Deep in the marshland. Looking west provides a wide view of the UNIA campus."
    },
    {
      "id": "stop-3",
      "label": "3",
      "lat": 37.208944,
      "lng": -6.930386,
      "title": "Amphitheater Viewpoint",
      "info": "Looking straight across the terrain to the west reveals the Amphitheater and Monastery."
    },
    {
      "id": "stop-4",
      "label": "4",
      "lat": 37.210575,
      "lng": -6.929539,
      "title": "Southern Edge",
      "info": "The path turns back inland, approaching the historic southern sector."
    }
  ],
  "landmarks": [
    { "id": "lm-1", "lat": 37.201467, "lng": -6.919806, "name": "1. Maxi-Lecture Hall", "radius": 140 },
    { "id": "lm-2", "lat": 37.2074, "lng": -6.9255, "name": "2. Monastery of La Rábida", "radius": 45 },
    { "id": "lm-3", "lat": 37.2090, "lng": -6.9230, "name": "3. Amphitheater", "radius": 60 },
    { "id": "lm-4", "lat": 37.2095, "lng": -6.9200, "name": "4. UNIA", "radius": 90 },
    { "id": "lm-5", "lat": 37.2055, "lng": -6.9265, "name": "5. Carabelas", "radius": 55 },
    { "id": "lm-6", "lat": 37.2105, "lng": -6.9288, "name": "6. Monument of Plus Ultra", "radius": 40 }
  ]
}