{
  "route": [
    { "lat": 37.2118, "lng": -6.9185 },
    { "lat": 37.2115, "lng": -6.9160 },
    { "lat": 37.2105, "lng": -6.9135 },
    { "lat": 37.2090, "lng": -6.9135 },
    { "lat": 37.2078, "lng": -6.9142 },
    { "lat": 37.2065, "lng": -6.9155 },
    { "lat": 37.2055, "lng": -6.9175 },
    { "lat": 37.2048, "lng": -6.9200 },
    { "lat": 37.2045, "lng": -6.9220 }
  ],
  "nodes": [
    {
      "id": "stop-1",
      "label": "1",
      "lat": 37.2118,
      "lng": -6.9185,
      "title": "Start of the Marsh Path",
      "info": "Looking north-west from here, you can see the Maxi-Lecture Hall of the Huelva Campus."
    },
    {
      "id": "stop-2",
      "label": "2",
      "lat": 37.2105,
      "lng": -6.9135,
      "title": "Estero de Domingo Rubio",
      "info": "Deep in the marshland. Looking west provides a wide view of the UNIA campus."
    },
    {
      "id": "stop-3",
      "label": "3",
      "lat": 37.2078,
      "lng": -6.9142,
      "title": "Amphitheater Viewpoint",
      "info": "Looking straight across the terrain to the west reveals the Amphitheater and Monastery."
    },
    {
      "id": "stop-4",
      "label": "4",
      "lat": 37.2055,
      "lng": -6.9175,
      "title": "Southern Edge",
      "info": "The path turns back inland, approaching the historic southern sector."
    },
    {
      "id": "stop-5",
      "label": "5",
      "lat": 37.2045,
      "lng": -6.9220,
      "title": "Dock Approach",
      "info": "The trail concludes near the water, with sightlines to the Carabelas and Plus Ultra."
    }
  ],
  "landmarks": [
  { "id": "lm-1", "lat": 37.201467, "lng": -6.919806, "name": "1. Maxi-Lecture Hall", "radius": 140 },
  { "id": "lm-2", "lat": 37.20756, "lng": -6.92614, "name": "2. Monastery of La Rábida", "radius": 45 },
  { "id": "lm-3", "lat": 37.20966, "lng": -6.92589, "name": "3. Amphitheater", "radius": 60 },
  { "id": "lm-4", "lat": 37.20859, "lng": -6.92246, "name": "4. UNIA", "radius": 90 },
  { "id": "lm-5", "lat": 37.21123, "lng": -6.92782, "name": "5. Carabelas", "radius": 55 },
  { "id": "lm-6", "lat": 37.21055, "lng": -6.92941, "name": "6. Monument of Plus Ultra", "radius": 40 },
  { "id": "lm-7", "lat": 37.207644, "lng": -6.923894, "name": "7. Monumento a los Descubridores", "radius": 50 }
]
}